{"Comrade Cycles":{"name":"Comrade Cycles","address":{"cross_streets":"Wolcott Ave & Winchester Ave","city":"Chicago","display_address":["1908 W Chicago Ave","Ukrainian Village","Chicago, IL 60622"],"geo_accuracy":8.0,"neighborhoods":["Ukrainian Village","West Town"],"postal_code":"60622","country_code":"US","address":["1908 W Chicago Ave"],"coordinate":{"latitude":41.896221,"longitude":-87.675041},"state_code":"IL"},"rating":5.0,"url":"http://www.yelp.com/biz/comrade-cycles-chicago"},"Roscoe Village Bikes":{"name":"Roscoe Village Bikes","address":{"cross_streets":"Damen Ave & Seeley Ave","city":"Chicago","display_address":["2016 W Roscoe St","Roscoe Village","Chicago, IL 60618"],"geo_accuracy":8.0,"neighborhoods":["Roscoe Village"],"postal_code":"60618","country_code":"US","address":["2016 W Roscoe St"],"coordinate":{"latitude":41.943493,"longitude":-87.679245},"state_code":"IL"},"rating":5.0,"url":"http://www.yelp.com/biz/roscoe-village-bikes-chicago"},"Blue City Cycles":{"name":"Blue City Cycles","address":{"city":"Chicago","display_address":["3201 S Halsted","Bridgeport","Chicago, IL 60608"],"geo_accuracy":8.0,"neighborhoods":["Bridgeport"],"postal_code":"60608","country_code":"US","address":["3201 S Halsted"],"coordinate":{"latitude":41.8360900878906,"longitude":-87.645881652832},"state_code":"IL"},"rating":4.5,"url":"http://www.yelp.com/biz/blue-city-cycles-chicago"},"Cycle Bike Shop":{"name":"Cycle Bike Shop","address":{"cross_streets":"14th St","city":"Chicago","display_address":["1465 S Michigan Ave","Near Southside","Chicago, IL 60605"],"geo_accuracy":9.5,"neighborhoods":["Near Southside"],"postal_code":"60605","country_code":"US","address":["1465 S Michigan Ave"],"coordinate":{"latitude":41.862174,"longitude":-87.6238625},"state_code":"IL"},"rating":4.5,"url":"http://www.yelp.com/biz/cycle-bike-shop-chicago"},"Working Bikes":{"name":"Working Bikes","address":{"cross_streets":"25th St","city":"Chicago","display_address":["2434 S Western Ave","Pilsen","Chicago, IL 60608"],"geo_accuracy":8.0,"neighborhoods":["Pilsen"],"postal_code":"60608","country_code":"US","address":["2434 S Western Ave"],"coordinate":{"latitude":41.847322806716,"longitude":-87.6855667680502},"state_code":"IL"},"rating":4.0,"url":"http://www.yelp.com/biz/working-bikes-chicago"},"Village Cycle Center":{"name":"Village Cycle Center","address":{"cross_streets":"Evergreen Ave & Schiller St","city":"Chicago","display_address":["1337 N Wells St","Near North Side","Chicago, IL 60610"],"geo_accuracy":8.0,"neighborhoods":["Near North Side","Old Town"],"postal_code":"60610","country_code":"US","address":["1337 N Wells St"],"coordinate":{"latitude":41.9067993,"longitude":-87.6341324},"state_code":"IL"},"rating":4.0,"url":"http://www.yelp.com/biz/village-cycle-center-chicago-2"},"Cycle Smithy":{"name":"Cycle Smithy","address":{"cross_streets":"Arlington Pl & Roslyn Pl","city":"Chicago","display_address":["2468 N Clark St","Lincoln Park","Chicago, IL 60614"],"geo_accuracy":8.0,"neighborhoods":["Lincoln Park"],"postal_code":"60614","country_code":"US","address":["2468 N Clark St"],"coordinate":{"latitude":41.9274470955133,"longitude":-87.6416596770287},"state_code":"IL"},"rating":4.5,"url":"http://www.yelp.com/biz/cycle-smithy-chicago"},"Bobby's Bike Hike Tours & Rentals":{"name":"Bobby's Bike Hike Tours & Rentals","address":{"city":"Chicago","display_address":["540 N Lake Shore Dr","Near North Side","Chicago, IL 60611"],"geo_accuracy":9.5,"neighborhoods":["Near North Side","River East"],"postal_code":"60611","country_code":"US","address":["540 N Lake Shore Dr"],"coordinate":{"latitude":41.8924395839824,"longitude":-87.6151605702225},"state_code":"IL"},"rating":4.5,"url":"http://www.yelp.com/biz/bobbys-bike-hike-tours-and-rentals-chicago"},"Blackstone Bicycle Works":{"name":"Blackstone Bicycle Works","address":{"cross_streets":"61st St","city":"Chicago","display_address":["6100 S Blackstone Ave","Woodlawn","Chicago, IL 60637"],"geo_accuracy":9.5,"neighborhoods":["Woodlawn"],"postal_code":"60637","country_code":"US","address":["6100 S Blackstone Ave"],"coordinate":{"latitude":41.784030424456006,"longitude":-87.590415364489},"state_code":"IL"},"rating":4.5,"url":"http://www.yelp.com/biz/blackstone-bicycle-works-chicago"},"roll: on Clybourn":{"name":"roll: on Clybourn","address":{"cross_streets":"Webster Ave & Wayne Ave","city":"Chicago","display_address":["2163 N Clybourn Ave","DePaul","Chicago, IL 60614"],"geo_accuracy":9.5,"neighborhoods":["DePaul"],"postal_code":"60614","country_code":"US","address":["2163 N Clybourn Ave"],"coordinate":{"latitude":41.9206655376417,"longitude":-87.6628493172395},"state_code":"IL"},"rating":5.0,"url":"http://www.yelp.com/biz/roll-on-clybourn-chicago"},"Irv's Bike Shop":{"name":"Irv's Bike Shop","address":{"cross_streets":"17th St & 18th St","city":"Chicago","display_address":["1725 S Racine Ave","Pilsen","Chicago, IL 60608"],"geo_accuracy":8.0,"neighborhoods":["Pilsen"],"postal_code":"60608","country_code":"US","address":["1725 S Racine Ave"],"coordinate":{"latitude":41.8585587,"longitude":-87.6562424},"state_code":"IL"},"rating":4.5,"url":"http://www.yelp.com/biz/irvs-bike-shop-chicago"},"Rapid Transit Cycle Shop":{"name":"Rapid Transit Cycle Shop","address":{"cross_streets":"Winchester Ave & Elk Grove Ave","city":"Chicago","display_address":["1900 W North Ave","Wicker Park","Chicago, IL 60622"],"geo_accuracy":9.5,"neighborhoods":["Wicker Park","West Town"],"postal_code":"60622","country_code":"US","address":["1900 W North Ave"],"coordinate":{"latitude":41.9106156486995,"longitude":-87.6750809434502},"state_code":"IL"},"rating":4.0,"url":"http://www.yelp.com/biz/rapid-transit-cycle-shop-chicago"},"The Bike Lane":{"name":"The Bike Lane","address":{"cross_streets":"Rockwell St & Maplewood Ave","city":"Chicago","display_address":["2130 North Milwaukee Avenue","Logan Square","Chicago, IL 60647"],"geo_accuracy":8.0,"neighborhoods":["Logan Square"],"postal_code":"60647","country_code":"US","address":["2130 North Milwaukee Avenue"],"coordinate":{"latitude":41.9197617,"longitude":-87.6926804},"state_code":"IL"},"rating":4.5,"url":"http://www.yelp.com/biz/the-bike-lane-chicago"},"Kozy's Cyclery":{"name":"Kozy's Cyclery","address":{"cross_streets":"Polk St & Cabrini St","city":"Chicago","display_address":["811 S DesPlaines St","University Village","Chicago, IL 60607"],"geo_accuracy":9.5,"neighborhoods":["University Village"],"postal_code":"60607","country_code":"US","address":["811 S DesPlaines St"],"coordinate":{"latitude":41.871689,"longitude":-87.6436584},"state_code":"IL"},"rating":4.0,"url":"http://www.yelp.com/biz/kozys-cyclery-chicago-5"},"Johnny Sprockets":{"name":"Johnny Sprockets","address":{"cross_streets":"Wellington Ave & Barry Ave","city":"Chicago","display_address":["3001 N Broadway St","Lakeview","Chicago, IL 60657"],"geo_accuracy":9.5,"neighborhoods":["Lakeview"],"postal_code":"60657","country_code":"US","address":["3001 N Broadway St"],"coordinate":{"latitude":41.936757211716,"longitude":-87.64413435008},"state_code":"IL"},"rating":4.0,"url":"http://www.yelp.com/biz/johnny-sprockets-chicago-2"},"West Town Bikes":{"name":"West Town Bikes","address":{"cross_streets":"Campbell Ave & Artesian Ave","city":"Chicago","display_address":["2459 W Division St","Humboldt Park","Chicago, IL 60622"],"geo_accuracy":8.0,"neighborhoods":["Humboldt Park","West Town"],"postal_code":"60622","country_code":"US","address":["2459 W Division St"],"coordinate":{"latitude":41.9028511,"longitude":-87.6888046},"state_code":"IL"},"rating":4.5,"url":"http://www.yelp.com/biz/west-town-bikes-chicago-3"},"A Nearly New Shop":{"name":"A Nearly New Shop","address":{"cross_streets":"Cuyler Ave & Belle Plaine Ave","city":"Chicago","display_address":["4075 N Broadway St","Uptown","Chicago, IL 60613"],"geo_accuracy":8.0,"neighborhoods":["Uptown"],"postal_code":"60613","country_code":"US","address":["4075 N Broadway St"],"coordinate":{"latitude":41.9563904,"longitude":-87.6514664},"state_code":"IL"},"rating":4.5,"url":"http://www.yelp.com/biz/a-nearly-new-shop-chicago"},"Kevin Thornton Bikes":{"name":"Kevin Thornton Bikes","address":{"cross_streets":"Barry Ave & Fletcher St","city":"Chicago","display_address":["3110 N Damen Ave","Roscoe Village","Chicago, IL 60618"],"geo_accuracy":8.0,"neighborhoods":["Roscoe Village"],"postal_code":"60618","country_code":"US","address":["3110 N Damen Ave"],"coordinate":{"latitude":41.938102,"longitude":-87.678604},"state_code":"IL"},"rating":5.0,"url":"http://www.yelp.com/biz/kevin-thornton-bikes-chicago"},"Barnard's Schwinn":{"name":"Barnard's Schwinn","address":{"cross_streets":"Taylor Ave & Moody Ave","city":"Oak Park","display_address":["6109 W North Ave","Oak Park, IL 60302"],"geo_accuracy":8.0,"postal_code":"60302","country_code":"US","address":["6109 W North Ave"],"coordinate":{"latitude":41.908932,"longitude":-87.778778},"state_code":"IL"},"rating":5.0,"url":"http://www.yelp.com/biz/barnards-schwinn-oak-park"}}